{"type":"FeatureCollection","crs":{"type":"name","properties":{"name":"EPSG:4152"}},"features":[{"type":"Feature","id":1,"geometry":{"type":"Point","coordinates":[-122.39014699999996,47.269941000000074]},"properties":{"OBJECTID":1,"YEAR":"2016","TRIFD":"98421SLPRN1825A","FRS_ID":"110000620588","NAME":"EMERALD SERVICES INC","ADDRESS":"1825 E ALEXANDER AVE","CITY":"TACOMA","COUNTY":"PIERCE","ST":"WA","ZIP":98421,"LATITUDE":47.269941000000003,"LONGITUDE":-122.390147,"FEDERAL":"NO","SEC_CODE":562,"INDUSTRY":"Hazardous Waste"}},{"type":"Feature","id":2,"geometry":{"type":"Point","coordinates":[-122.39014699999996,47.269941000000074]},"properties":{"OBJECTID":2,"YEAR":"2016","TRIFD":"98421SLPRN1825A","FRS_ID":"110000620588","NAME":"EMERALD SERVICES INC","ADDRESS":"1825 E ALEXANDER AVE","CITY":"TACOMA","COUNTY":"PIERCE","ST":"WA","ZIP":98421,"LATITUDE":47.269941000000003,"LONGITUDE":-122.390147,"FEDERAL":"NO","SEC_CODE":562,"INDUSTRY":"Hazardous Waste"}},{"type":"Feature","id":3,"geometry":{"type":"Point","coordinates":[-122.39014699999996,47.269941000000074]},"properties":{"OBJECTID":3,"YEAR":"2016","TRIFD":"98421SLPRN1825A","FRS_ID":"110000620588","NAME":"EMERALD SERVICES INC","ADDRESS":"1825 E ALEXANDER AVE","CITY":"TACOMA","COUNTY":"PIERCE","ST":"WA","ZIP":98421,"LATITUDE":47.269941000000003,"LONGITUDE":-122.390147,"FEDERAL":"NO","SEC_CODE":562,"INDUSTRY":"Hazardous Waste"}},{"type":"Feature","id":4,"geometry":{"type":"Point","coordinates":[-122.39014699999996,47.269941000000074]},"properties":{"OBJECTID":4,"YEAR":"2016","TRIFD":"98421SLPRN1825A","FRS_ID":"110000620588","NAME":"EMERALD SERVICES INC","ADDRESS":"1825 E ALEXANDER AVE","CITY":"TACOMA","COUNTY":"PIERCE","ST":"WA","ZIP":98421,"LATITUDE":47.269941000000003,"LONGITUDE":-122.390147,"FEDERAL":"NO","SEC_CODE":562,"INDUSTRY":"Hazardous Waste"}},{"type":"Feature","id":5,"geometry":{"type":"Point","coordinates":[-122.36973199999994,47.271113000000071]},"properties":{"OBJECTID":5,"YEAR":"2016","TRIFD":"98422JNSCH1919M","FRS_ID":"110000490576","NAME":"JCI JONES CHEMICALS INC","ADDRESS":"1919 MARINE VIEW DR","CITY":"TACOMA","COUNTY":"PIERCE","ST":"WA","ZIP":98422,"LATITUDE":47.271113,"LONGITUDE":-122.369732,"FEDERAL":"NO","SEC_CODE":4246,"INDUSTRY":"Chemical Wholesalers"}},{"type":"Feature","id":6,"geometry":{"type":"Point","coordinates":[-122.39014699999996,47.269941000000074]},"properties":{"OBJECTID":6,"YEAR":"2016","TRIFD":"98421SLPRN1825A","FRS_ID":"110000620588","NAME":"EMERALD SERVICES INC","ADDRESS":"1825 E ALEXANDER AVE","CITY":"TACOMA","COUNTY":"PIERCE","ST":"WA","ZIP":98421,"LATITUDE":47.269941000000003,"LONGITUDE":-122.390147,"FEDERAL":"NO","SEC_CODE":562,"INDUSTRY":"Hazardous Waste"}},{"type":"Feature","id":7,"geometry":{"type":"Point","coordinates":[-122.39014699999996,47.269941000000074]},"properties":{"OBJECTID":7,"YEAR":"2016","TRIFD":"98421SLPRN1825A","FRS_ID":"110000620588","NAME":"EMERALD SERVICES INC","ADDRESS":"1825 E ALEXANDER AVE","CITY":"TACOMA","COUNTY":"PIERCE","ST":"WA","ZIP":98421,"LATITUDE":47.269941000000003,"LONGITUDE":-122.390147,"FEDERAL":"NO","SEC_CODE":562,"INDUSTRY":"Hazardous Waste"}},{"type":"Feature","id":8,"geometry":{"type":"Point","coordinates":[-122.39014699999996,47.269941000000074]},"properties":{"OBJECTID":8,"YEAR":"2016","TRIFD":"98421SLPRN1825A","FRS_ID":"110000620588","NAME":"EMERALD SERVICES INC","ADDRESS":"1825 E ALEXANDER AVE","CITY":"TACOMA","COUNTY":"PIERCE","ST":"WA","ZIP":98421,"LATITUDE":47.269941000000003,"LONGITUDE":-122.390147,"FEDERAL":"NO","SEC_CODE":562,"INDUSTRY":"Hazardous Waste"}},{"type":"Feature","id":9,"geometry":{"type":"Point","coordinates":[-122.39014699999996,47.269941000000074]},"properties":{"OBJECTID":9,"YEAR":"2016","TRIFD":"98421SLPRN1825A","FRS_ID":"110000620588","NAME":"EMERALD SERVICES INC","ADDRESS":"1825 E ALEXANDER AVE","CITY":"TACOMA","COUNTY":"PIERCE","ST":"WA","ZIP":98421,"LATITUDE":47.269941000000003,"LONGITUDE":-122.390147,"FEDERAL":"NO","SEC_CODE":562,"INDUSTRY":"Hazardous Waste"}},{"type":"Feature","id":10,"geometry":{"type":"Point","coordinates":[-122.45999999999998,47.232778000000053]},"properties":{"OBJECTID":10,"YEAR":"2016","TRIFD":"98409TLSFN3021S","FRS_ID":"110000495884","NAME":"BRADKEN ENERGY","ADDRESS":"3021 S WILKESON ST","CITY":"TACOMA","COUNTY":"PIERCE","ST":"WA","ZIP":98409,"LATITUDE":47.232778000000003,"LONGITUDE":-122.45999999999999,"FEDERAL":"NO","SEC_CODE":331,"INDUSTRY":"Primary Metals"}},{"type":"Feature","id":11,"geometry":{"type":"Point","coordinates":[-122.34685099999996,47.086549000000048]},"properties":{"OBJECTID":11,"YEAR":"2016","TRIFD":"98373BCGFB18001","FRS_ID":"110015575215","NAME":"BOEING COMMERCIAL AIRPLANES-FREDERICKSON","ADDRESS":"18001 CANYON RD E","CITY":"PUYALLUP","COUNTY":"PIERCE","ST":"WA","ZIP":98375,"LATITUDE":47.086548999999998,"LONGITUDE":-122.346851,"FEDERAL":"NO","SEC_CODE":336,"INDUSTRY":"Transportation Equipment"}},{"type":"Feature","id":12,"geometry":{"type":"Point","coordinates":[-122.42779499999995,47.264019000000076]},"properties":{"OBJECTID":12,"YEAR":"2016","TRIFD":"98421SMPSN801PO","FRS_ID":"110000490558","NAME":"WESTROCK TACOMA MILL","ADDRESS":"801 PORTLAND AVE","CITY":"TACOMA","COUNTY":"PIERCE","ST":"WA","ZIP":98421,"LATITUDE":47.264018999999998,"LONGITUDE":-122.427795,"FEDERAL":"NO","SEC_CODE":322,"INDUSTRY":"Paper"}},{"type":"Feature","id":13,"geometry":{"type":"Point","coordinates":[-122.34685099999996,47.086549000000048]},"properties":{"OBJECTID":13,"YEAR":"2016","TRIFD":"98373BCGFB18001","FRS_ID":"110015575215","NAME":"BOEING COMMERCIAL AIRPLANES-FREDERICKSON","ADDRESS":"18001 CANYON RD E","CITY":"PUYALLUP","COUNTY":"PIERCE","ST":"WA","ZIP":98375,"LATITUDE":47.086548999999998,"LONGITUDE":-122.346851,"FEDERAL":"NO","SEC_CODE":336,"INDUSTRY":"Transportation Equipment"}},{"type":"Feature","id":14,"geometry":{"type":"Point","coordinates":[-122.39525899999995,47.257694000000072]},"properties":{"OBJECTID":14,"YEAR":"2016","TRIFD":"98421SLRFN3001M","FRS_ID":"110000490549","NAME":"US OIL & REFINING CO","ADDRESS":"3001 MARSHALL AVE","CITY":"TACOMA","COUNTY":"PIERCE","ST":"WA","ZIP":98421,"LATITUDE":47.257694000000001,"LONGITUDE":-122.395259,"FEDERAL":"NO","SEC_CODE":324,"INDUSTRY":"Petroleum"}},{"type":"Feature","id":15,"geometry":{"type":"Point","coordinates":[-122.33776899999998,47.22888800000004]},"properties":{"OBJECTID":15,"YEAR":"2016","TRIFD":"9842WPXCLL3117T","FRS_ID":"110055001750","NAME":"PEXCO LLC","ADDRESS":"3110 70TH AVENUE E","CITY":"TACOMA","COUNTY":"PIERCE","ST":"WA","ZIP":98424,"LATITUDE":47.228887999999998,"LONGITUDE":-122.33776899999999,"FEDERAL":"NO","SEC_CODE":326,"INDUSTRY":"Plastics and Rubber"}},{"type":"Feature","id":16,"geometry":{"type":"Point","coordinates":[-122.39014699999996,47.269941000000074]},"properties":{"OBJECTID":16,"YEAR":"2016","TRIFD":"98421SLPRN1825A","FRS_ID":"110000620588","NAME":"EMERALD SERVICES INC","ADDRESS":"1825 E ALEXANDER AVE","CITY":"TACOMA","COUNTY":"PIERCE","ST":"WA","ZIP":98421,"LATITUDE":47.269941000000003,"LONGITUDE":-122.390147,"FEDERAL":"NO","SEC_CODE":562,"INDUSTRY":"Hazardous Waste"}},{"type":"Feature","id":17,"geometry":{"type":"Point","coordinates":[-122.39014699999996,47.269941000000074]},"properties":{"OBJECTID":17,"YEAR":"2016","TRIFD":"98421SLPRN1825A","FRS_ID":"110000620588","NAME":"EMERALD SERVICES INC","ADDRESS":"1825 E ALEXANDER AVE","CITY":"TACOMA","COUNTY":"PIERCE","ST":"WA","ZIP":98421,"LATITUDE":47.269941000000003,"LONGITUDE":-122.390147,"FEDERAL":"NO","SEC_CODE":562,"INDUSTRY":"Hazardous Waste"}},{"type":"Feature","id":18,"geometry":{"type":"Point","coordinates":[-122.39014699999996,47.269941000000074]},"properties":{"OBJECTID":18,"YEAR":"2016","TRIFD":"98421SLPRN1825A","FRS_ID":"110000620588","NAME":"EMERALD SERVICES INC","ADDRESS":"1825 E ALEXANDER AVE","CITY":"TACOMA","COUNTY":"PIERCE","ST":"WA","ZIP":98421,"LATITUDE":47.269941000000003,"LONGITUDE":-122.390147,"FEDERAL":"NO","SEC_CODE":562,"INDUSTRY":"Hazardous Waste"}},{"type":"Feature","id":19,"geometry":{"type":"Point","coordinates":[-122.18389099999996,47.081112000000076]},"properties":{"OBJECTID":19,"YEAR":"2016","TRIFD":"98360BXTRM19220","FRS_ID":"110042085016","NAME":"BAXTER MANUFACTURING A DIV OF ITW-FOOD EQUIPMENT GROUP","ADDRESS":"19220 STATE RTE 162 E","CITY":"ORTING","COUNTY":"PIERCE","ST":"WA","ZIP":98360,"LATITUDE":47.081111999999997,"LONGITUDE":-122.183891,"FEDERAL":"NO","SEC_CODE":333,"INDUSTRY":"Machinery"}},{"type":"Feature","id":20,"geometry":{"type":"Point","coordinates":[-122.53649999999999,47.114200000000039]},"properties":{"OBJECTID":20,"YEAR":"2016","TRIFD":"98433SDDSR11MIL","FRS_ID":"110070596041","NAME":"U.S. ARMY JOINT BASE LEWIS-MCCHORD","ADDRESS":"11 MILES S OF TACOMA CITY","CITY":"JBLM","COUNTY":"PIERCE","ST":"WA","ZIP":984339500,"LATITUDE":47.114199999999997,"LONGITUDE":-122.5365,"FEDERAL":"YES","SEC_CODE":999,"INDUSTRY":"Other"}},{"type":"Feature","id":21,"geometry":{"type":"Point","coordinates":[-122.18389099999996,47.081112000000076]},"properties":{"OBJECTID":21,"YEAR":"2016","TRIFD":"98360BXTRM19220","FRS_ID":"110042085016","NAME":"BAXTER MANUFACTURING A DIV OF ITW-FOOD EQUIPMENT GROUP","ADDRESS":"19220 STATE RTE 162 E","CITY":"ORTING","COUNTY":"PIERCE","ST":"WA","ZIP":98360,"LATITUDE":47.081111999999997,"LONGITUDE":-122.183891,"FEDERAL":"NO","SEC_CODE":333,"INDUSTRY":"Machinery"}},{"type":"Feature","id":22,"geometry":{"type":"Point","coordinates":[-122.24453999999997,47.246596000000068]},"properties":{"OBJECTID":22,"YEAR":"2016","TRIFD":"98390SPRRW13702","FRS_ID":"110000490371","NAME":"SUPERIOR WOOD TREATING","ADDRESS":"13702 STEWART RD.","CITY":"SUMNER","COUNTY":"PIERCE","ST":"WA","ZIP":98390,"LATITUDE":47.246595999999997,"LONGITUDE":-122.24454,"FEDERAL":"NO","SEC_CODE":321,"INDUSTRY":"Wood Products"}},{"type":"Feature","id":23,"geometry":{"type":"Point","coordinates":[-122.36052999999998,47.084450000000061]},"properties":{"OBJECTID":23,"YEAR":"2016","TRIFD":"98446TRYCM19002","FRS_ID":"110000490594","NAME":"TORAY COMPOSITE MATERIALS AMERICA","ADDRESS":"19002 50TH AVE E","CITY":"TACOMA","COUNTY":"PIERCE","ST":"WA","ZIP":98446,"LATITUDE":47.084449999999997,"LONGITUDE":-122.36053,"FEDERAL":"NO","SEC_CODE":335,"INDUSTRY":"Electrical Equipment"}},{"type":"Feature","id":24,"geometry":{"type":"Point","coordinates":[-122.42779499999995,47.264019000000076]},"properties":{"OBJECTID":24,"YEAR":"2016","TRIFD":"98421SMPSN801PO","FRS_ID":"110000490558","NAME":"WESTROCK TACOMA MILL","ADDRESS":"801 PORTLAND AVE","CITY":"TACOMA","COUNTY":"PIERCE","ST":"WA","ZIP":98421,"LATITUDE":47.264018999999998,"LONGITUDE":-122.427795,"FEDERAL":"NO","SEC_CODE":322,"INDUSTRY":"Paper"}},{"type":"Feature","id":25,"geometry":{"type":"Point","coordinates":[-122.42779499999995,47.264019000000076]},"properties":{"OBJECTID":25,"YEAR":"2016","TRIFD":"98421SMPSN801PO","FRS_ID":"110000490558","NAME":"WESTROCK TACOMA MILL","ADDRESS":"801 PORTLAND AVE","CITY":"TACOMA","COUNTY":"PIERCE","ST":"WA","ZIP":98421,"LATITUDE":47.264018999999998,"LONGITUDE":-122.427795,"FEDERAL":"NO","SEC_CODE":322,"INDUSTRY":"Paper"}},{"type":"Feature","id":26,"geometry":{"type":"Point","coordinates":[-122.39486899999997,47.269558000000075]},"properties":{"OBJECTID":26,"YEAR":"2016","TRIFD":"98421DMTRN1240A","FRS_ID":"110000902300","NAME":"GEORGIA-PACIFIC GYPSUM LLC","ADDRESS":"1240 ALEXANDER AVE","CITY":"TACOMA","COUNTY":"PIERCE","ST":"WA","ZIP":98421,"LATITUDE":47.269558000000004,"LONGITUDE":-122.394869,"FEDERAL":"NO","SEC_CODE":327,"INDUSTRY":"Nonmetallic Mineral Product"}},{"type":"Feature","id":27,"geometry":{"type":"Point","coordinates":[-122.42779499999995,47.264019000000076]},"properties":{"OBJECTID":27,"YEAR":"2016","TRIFD":"98421SMPSN801PO","FRS_ID":"110000490558","NAME":"WESTROCK TACOMA MILL","ADDRESS":"801 PORTLAND AVE","CITY":"TACOMA","COUNTY":"PIERCE","ST":"WA","ZIP":98421,"LATITUDE":47.264018999999998,"LONGITUDE":-122.427795,"FEDERAL":"NO","SEC_CODE":322,"INDUSTRY":"Paper"}},{"type":"Feature","id":28,"geometry":{"type":"Point","coordinates":[-122.40210099999996,47.243730000000028]},"properties":{"OBJECTID":28,"YEAR":"2016","TRIFD":"9840WSSCTD232MI","FRS_ID":"110005310831","NAME":"ASSOCIATED PETROLEUM PRODUCTS INC","ADDRESS":"2320 MILWAUKEE WAY","CITY":"TACOMA","COUNTY":"PIERCE","ST":"WA","ZIP":98421,"LATITUDE":47.243729999999999,"LONGITUDE":-122.402101,"FEDERAL":"NO","SEC_CODE":4247,"INDUSTRY":"Petroleum Bulk Terminals"}},{"type":"Feature","id":29,"geometry":{"type":"Point","coordinates":[-122.39525899999995,47.257694000000072]},"properties":{"OBJECTID":29,"YEAR":"2016","TRIFD":"98421SLRFN3001M","FRS_ID":"110000490549","NAME":"US OIL & REFINING CO","ADDRESS":"3001 MARSHALL AVE","CITY":"TACOMA","COUNTY":"PIERCE","ST":"WA","ZIP":98421,"LATITUDE":47.257694000000001,"LONGITUDE":-122.395259,"FEDERAL":"NO","SEC_CODE":324,"INDUSTRY":"Petroleum"}},{"type":"Feature","id":30,"geometry":{"type":"Point","coordinates":[-122.62823599999996,47.112861000000066]},"properties":{"OBJECTID":30,"YEAR":"2016","TRIFD":"9832WBSLTX3299I","FRS_ID":"110018850073","NAME":"BASALITE","ADDRESS":"3299 INTERNATIONAL PLACE","CITY":"DUPONT","COUNTY":"PIERCE","ST":"WA","ZIP":98327,"LATITUDE":47.112861000000002,"LONGITUDE":-122.628236,"FEDERAL":"NO","SEC_CODE":327,"INDUSTRY":"Nonmetallic Mineral Product"}},{"type":"Feature","id":31,"geometry":{"type":"Point","coordinates":[-122.39525899999995,47.257694000000072]},"properties":{"OBJECTID":31,"YEAR":"2016","TRIFD":"98421SLRFN3001M","FRS_ID":"110000490549","NAME":"US OIL & REFINING CO","ADDRESS":"3001 MARSHALL AVE","CITY":"TACOMA","COUNTY":"PIERCE","ST":"WA","ZIP":98421,"LATITUDE":47.257694000000001,"LONGITUDE":-122.395259,"FEDERAL":"NO","SEC_CODE":324,"INDUSTRY":"Petroleum"}},{"type":"Feature","id":32,"geometry":{"type":"Point","coordinates":[-122.23964299999994,47.211588000000063]},"properties":{"OBJECTID":32,"YEAR":"2016","TRIFD":"98390SNCPR1802S","FRS_ID":"110002041923","NAME":"SONOCO PRODUCTS CO","ADDRESS":"1802 STEELE AVE","CITY":"SUMNER","COUNTY":"PIERCE","ST":"WA","ZIP":98390,"LATITUDE":47.211587999999999,"LONGITUDE":-122.239643,"FEDERAL":"NO","SEC_CODE":322,"INDUSTRY":"Paper"}},{"type":"Feature","id":33,"geometry":{"type":"Point","coordinates":[-122.23719099999994,47.209016000000076]},"properties":{"OBJECTID":33,"YEAR":"2016","TRIFD":"98390WSTRN1313Z","FRS_ID":"110000490380","NAME":"WESTERN WOOD PRESERVING CO","ADDRESS":"1313 ZEHNDER ST","CITY":"SUMNER","COUNTY":"PIERCE","ST":"WA","ZIP":98390,"LATITUDE":47.209015999999998,"LONGITUDE":-122.237191,"FEDERAL":"NO","SEC_CODE":321,"INDUSTRY":"Wood Products"}},{"type":"Feature","id":34,"geometry":{"type":"Point","coordinates":[-122.45999999999998,47.232778000000053]},"properties":{"OBJECTID":34,"YEAR":"2016","TRIFD":"98409TLSFN3021S","FRS_ID":"110000495884","NAME":"BRADKEN ENERGY","ADDRESS":"3021 S WILKESON ST","CITY":"TACOMA","COUNTY":"PIERCE","ST":"WA","ZIP":98409,"LATITUDE":47.232778000000003,"LONGITUDE":-122.45999999999999,"FEDERAL":"NO","SEC_CODE":331,"INDUSTRY":"Primary Metals"}},{"type":"Feature","id":35,"geometry":{"type":"Point","coordinates":[-122.39014699999996,47.269941000000074]},"properties":{"OBJECTID":35,"YEAR":"2016","TRIFD":"98421SLPRN1825A","FRS_ID":"110000620588","NAME":"EMERALD SERVICES INC","ADDRESS":"1825 E ALEXANDER AVE","CITY":"TACOMA","COUNTY":"PIERCE","ST":"WA","ZIP":98421,"LATITUDE":47.269941000000003,"LONGITUDE":-122.390147,"FEDERAL":"NO","SEC_CODE":562,"INDUSTRY":"Hazardous Waste"}},{"type":"Feature","id":36,"geometry":{"type":"Point","coordinates":[-122.39014699999996,47.269941000000074]},"properties":{"OBJECTID":36,"YEAR":"2016","TRIFD":"98421SLPRN1825A","FRS_ID":"110000620588","NAME":"EMERALD SERVICES INC","ADDRESS":"1825 E ALEXANDER AVE","CITY":"TACOMA","COUNTY":"PIERCE","ST":"WA","ZIP":98421,"LATITUDE":47.269941000000003,"LONGITUDE":-122.390147,"FEDERAL":"NO","SEC_CODE":562,"INDUSTRY":"Hazardous Waste"}},{"type":"Feature","id":37,"geometry":{"type":"Point","coordinates":[-122.39014699999996,47.269941000000074]},"properties":{"OBJECTID":37,"YEAR":"2016","TRIFD":"98421SLPRN1825A","FRS_ID":"110000620588","NAME":"EMERALD SERVICES INC","ADDRESS":"1825 E ALEXANDER AVE","CITY":"TACOMA","COUNTY":"PIERCE","ST":"WA","ZIP":98421,"LATITUDE":47.269941000000003,"LONGITUDE":-122.390147,"FEDERAL":"NO","SEC_CODE":562,"INDUSTRY":"Hazardous Waste"}},{"type":"Feature","id":38,"geometry":{"type":"Point","coordinates":[-122.39014699999996,47.269941000000074]},"properties":{"OBJECTID":38,"YEAR":"2016","TRIFD":"98421SLPRN1825A","FRS_ID":"110000620588","NAME":"EMERALD SERVICES INC","ADDRESS":"1825 E ALEXANDER AVE","CITY":"TACOMA","COUNTY":"PIERCE","ST":"WA","ZIP":98421,"LATITUDE":47.269941000000003,"LONGITUDE":-122.390147,"FEDERAL":"NO","SEC_CODE":562,"INDUSTRY":"Hazardous Waste"}},{"type":"Feature","id":39,"geometry":{"type":"Point","coordinates":[-122.42779499999995,47.264019000000076]},"properties":{"OBJECTID":39,"YEAR":"2016","TRIFD":"98421SMPSN801PO","FRS_ID":"110000490558","NAME":"WESTROCK TACOMA MILL","ADDRESS":"801 PORTLAND AVE","CITY":"TACOMA","COUNTY":"PIERCE","ST":"WA","ZIP":98421,"LATITUDE":47.264018999999998,"LONGITUDE":-122.427795,"FEDERAL":"NO","SEC_CODE":322,"INDUSTRY":"Paper"}},{"type":"Feature","id":40,"geometry":{"type":"Point","coordinates":[-122.53649999999999,47.114200000000039]},"properties":{"OBJECTID":40,"YEAR":"2016","TRIFD":"98433SDDSR11MIL","FRS_ID":"110070596041","NAME":"U.S. ARMY JOINT BASE LEWIS-MCCHORD","ADDRESS":"11 MILES S OF TACOMA CITY","CITY":"JBLM","COUNTY":"PIERCE","ST":"WA","ZIP":984339500,"LATITUDE":47.114199999999997,"LONGITUDE":-122.5365,"FEDERAL":"YES","SEC_CODE":999,"INDUSTRY":"Other"}},{"type":"Feature","id":41,"geometry":{"type":"Point","coordinates":[-122.40301599999998,47.247943000000078]},"properties":{"OBJECTID":41,"YEAR":"2016","TRIFD":"98421DYNVR2144M","FRS_ID":"110000490521","NAME":"ARCLIN SURFACES LLC","ADDRESS":"2144 MILWAUKEE WAY","CITY":"TACOMA","COUNTY":"PIERCE","ST":"WA","ZIP":98421,"LATITUDE":47.247942999999999,"LONGITUDE":-122.40301599999999,"FEDERAL":"NO","SEC_CODE":322,"INDUSTRY":"Paper"}},{"type":"Feature","id":42,"geometry":{"type":"Point","coordinates":[-122.39525899999995,47.257694000000072]},"properties":{"OBJECTID":42,"YEAR":"2016","TRIFD":"98421SLRFN3001M","FRS_ID":"110000490549","NAME":"US OIL & REFINING CO","ADDRESS":"3001 MARSHALL AVE","CITY":"TACOMA","COUNTY":"PIERCE","ST":"WA","ZIP":98421,"LATITUDE":47.257694000000001,"LONGITUDE":-122.395259,"FEDERAL":"NO","SEC_CODE":324,"INDUSTRY":"Petroleum"}},{"type":"Feature","id":43,"geometry":{"type":"Point","coordinates":[-122.39014699999996,47.269941000000074]},"properties":{"OBJECTID":43,"YEAR":"2016","TRIFD":"98421SLPRN1825A","FRS_ID":"110000620588","NAME":"EMERALD SERVICES INC","ADDRESS":"1825 E ALEXANDER AVE","CITY":"TACOMA","COUNTY":"PIERCE","ST":"WA","ZIP":98421,"LATITUDE":47.269941000000003,"LONGITUDE":-122.390147,"FEDERAL":"NO","SEC_CODE":562,"INDUSTRY":"Hazardous Waste"}},{"type":"Feature","id":44,"geometry":{"type":"Point","coordinates":[-122.39014699999996,47.269941000000074]},"properties":{"OBJECTID":44,"YEAR":"2016","TRIFD":"98421SLPRN1825A","FRS_ID":"110000620588","NAME":"EMERALD SERVICES INC","ADDRESS":"1825 E ALEXANDER AVE","CITY":"TACOMA","COUNTY":"PIERCE","ST":"WA","ZIP":98421,"LATITUDE":47.269941000000003,"LONGITUDE":-122.390147,"FEDERAL":"NO","SEC_CODE":562,"INDUSTRY":"Hazardous Waste"}},{"type":"Feature","id":45,"geometry":{"type":"Point","coordinates":[-122.36242099999998,47.088365000000067]},"properties":{"OBJECTID":45,"YEAR":"2016","TRIFD":"9844WCRLSN18425","FRS_ID":"110040367661","NAME":"CARLSON PAVING PRODUCTS INC","ADDRESS":"18425 50TH AVE E","CITY":"TACOMA","COUNTY":"PIERCE","ST":"WA","ZIP":98446,"LATITUDE":47.088365000000003,"LONGITUDE":-122.362421,"FEDERAL":"NO","SEC_CODE":333,"INDUSTRY":"Machinery"}},{"type":"Feature","id":46,"geometry":{"type":"Point","coordinates":[-122.42779499999995,47.264019000000076]},"properties":{"OBJECTID":46,"YEAR":"2016","TRIFD":"98421SMPSN801PO","FRS_ID":"110000490558","NAME":"WESTROCK TACOMA MILL","ADDRESS":"801 PORTLAND AVE","CITY":"TACOMA","COUNTY":"PIERCE","ST":"WA","ZIP":98421,"LATITUDE":47.264018999999998,"LONGITUDE":-122.427795,"FEDERAL":"NO","SEC_CODE":322,"INDUSTRY":"Paper"}},{"type":"Feature","id":47,"geometry":{"type":"Point","coordinates":[-122.42779499999995,47.264019000000076]},"properties":{"OBJECTID":47,"YEAR":"2016","TRIFD":"98421SMPSN801PO","FRS_ID":"110000490558","NAME":"WESTROCK TACOMA MILL","ADDRESS":"801 PORTLAND AVE","CITY":"TACOMA","COUNTY":"PIERCE","ST":"WA","ZIP":98421,"LATITUDE":47.264018999999998,"LONGITUDE":-122.427795,"FEDERAL":"NO","SEC_CODE":322,"INDUSTRY":"Paper"}},{"type":"Feature","id":48,"geometry":{"type":"Point","coordinates":[-122.47200799999996,47.232863000000066]},"properties":{"OBJECTID":48,"YEAR":"2016","TRIFD":"98409NWTCH2601S","FRS_ID":"110000490424","NAME":"NORTHWEST ETCH","ADDRESS":"2601 S HOOD ST","CITY":"TACOMA","COUNTY":"PIERCE","ST":"WA","ZIP":98409,"LATITUDE":47.232863000000002,"LONGITUDE":-122.472008,"FEDERAL":"NO","SEC_CODE":332,"INDUSTRY":"Fabricated Metals"}},{"type":"Feature","id":49,"geometry":{"type":"Point","coordinates":[-122.42779499999995,47.264019000000076]},"properties":{"OBJECTID":49,"YEAR":"2016","TRIFD":"98421SMPSN801PO","FRS_ID":"110000490558","NAME":"WESTROCK TACOMA MILL","ADDRESS":"801 PORTLAND AVE","CITY":"TACOMA","COUNTY":"PIERCE","ST":"WA","ZIP":98421,"LATITUDE":47.264018999999998,"LONGITUDE":-122.427795,"FEDERAL":"NO","SEC_CODE":322,"INDUSTRY":"Paper"}},{"type":"Feature","id":50,"geometry":{"type":"Point","coordinates":[-122.36479499999996,47.091503000000046]},"properties":{"OBJECTID":50,"YEAR":"2016","TRIFD":"98446JHBPT1825T","FRS_ID":"110005392556","NAME":"JAMES HARDIE BUILDING PRODUCTS TACOMA","ADDRESS":"18200 50TH AVE  E","CITY":"TACOMA","COUNTY":"PIERCE","ST":"WA","ZIP":98446,"LATITUDE":47.091503000000003,"LONGITUDE":-122.364795,"FEDERAL":"NO","SEC_CODE":327,"INDUSTRY":"Nonmetallic Mineral Product"}},{"type":"Feature","id":51,"geometry":{"type":"Point","coordinates":[-122.40210099999996,47.243730000000028]},"properties":{"OBJECTID":51,"YEAR":"2016","TRIFD":"9840WSSCTD232MI","FRS_ID":"110005310831","NAME":"ASSOCIATED PETROLEUM PRODUCTS INC","ADDRESS":"2320 MILWAUKEE WAY","CITY":"TACOMA","COUNTY":"PIERCE","ST":"WA","ZIP":98421,"LATITUDE":47.243729999999999,"LONGITUDE":-122.402101,"FEDERAL":"NO","SEC_CODE":4247,"INDUSTRY":"Petroleum Bulk Terminals"}},{"type":"Feature","id":52,"geometry":{"type":"Point","coordinates":[-122.36903299999994,47.244049000000075]},"properties":{"OBJECTID":52,"YEAR":"2016","TRIFD":"98424RNRBL45001","FRS_ID":"110000828766","NAME":"RAINIER BALLISTICS LLC","ADDRESS":"4500 15TH ST E","CITY":"TACOMA","COUNTY":"PIERCE","ST":"WA","ZIP":98424,"LATITUDE":47.244048999999997,"LONGITUDE":-122.369033,"FEDERAL":"NO","SEC_CODE":332,"INDUSTRY":"Fabricated Metals"}},{"type":"Feature","id":53,"geometry":{"type":"Point","coordinates":[-122.36903299999994,47.244049000000075]},"properties":{"OBJECTID":53,"YEAR":"2016","TRIFD":"98424RNRBL45001","FRS_ID":"110000828766","NAME":"RAINIER BALLISTICS LLC","ADDRESS":"4500 15TH ST E","CITY":"TACOMA","COUNTY":"PIERCE","ST":"WA","ZIP":98424,"LATITUDE":47.244048999999997,"LONGITUDE":-122.369033,"FEDERAL":"NO","SEC_CODE":332,"INDUSTRY":"Fabricated Metals"}},{"type":"Feature","id":54,"geometry":{"type":"Point","coordinates":[-122.43309999999997,47.258539000000042]},"properties":{"OBJECTID":54,"YEAR":"2016","TRIFD":"9842WCNCPH52EAS","FRS_ID":"110000897003","NAME":"PHILLIPS 66 TACOMA TERMINAL","ADDRESS":"520 E D ST","CITY":"TACOMA","COUNTY":"PIERCE","ST":"WA","ZIP":98421,"LATITUDE":47.258538999999999,"LONGITUDE":-122.4331,"FEDERAL":"NO","SEC_CODE":4247,"INDUSTRY":"Petroleum Bulk Terminals"}},{"type":"Feature","id":55,"geometry":{"type":"Point","coordinates":[-122.33776899999998,47.22888800000004]},"properties":{"OBJECTID":55,"YEAR":"2016","TRIFD":"9842WPXCLL3117T","FRS_ID":"110055001750","NAME":"PEXCO LLC","ADDRESS":"3110 70TH AVENUE E","CITY":"TACOMA","COUNTY":"PIERCE","ST":"WA","ZIP":98424,"LATITUDE":47.228887999999998,"LONGITUDE":-122.33776899999999,"FEDERAL":"NO","SEC_CODE":326,"INDUSTRY":"Plastics and Rubber"}},{"type":"Feature","id":56,"geometry":{"type":"Point","coordinates":[-122.48054999999999,47.22554000000008]},"properties":{"OBJECTID":56,"YEAR":"2016","TRIFD":"9840WBRDKN3611S","FRS_ID":"110054929459","NAME":"BRADKEN INC","ADDRESS":"3611 S WARNER ST","CITY":"TACOMA","COUNTY":"PIERCE","ST":"WA","ZIP":98409,"LATITUDE":47.225540000000002,"LONGITUDE":-122.48054999999999,"FEDERAL":"NO","SEC_CODE":331,"INDUSTRY":"Primary Metals"}},{"type":"Feature","id":57,"geometry":{"type":"Point","coordinates":[-122.45999999999998,47.232778000000053]},"properties":{"OBJECTID":57,"YEAR":"2016","TRIFD":"98409TLSFN3021S","FRS_ID":"110000495884","NAME":"BRADKEN ENERGY","ADDRESS":"3021 S WILKESON ST","CITY":"TACOMA","COUNTY":"PIERCE","ST":"WA","ZIP":98409,"LATITUDE":47.232778000000003,"LONGITUDE":-122.45999999999999,"FEDERAL":"NO","SEC_CODE":331,"INDUSTRY":"Primary Metals"}},{"type":"Feature","id":58,"geometry":{"type":"Point","coordinates":[-122.39014699999996,47.269941000000074]},"properties":{"OBJECTID":58,"YEAR":"2016","TRIFD":"98421SLPRN1825A","FRS_ID":"110000620588","NAME":"EMERALD SERVICES INC","ADDRESS":"1825 E ALEXANDER AVE","CITY":"TACOMA","COUNTY":"PIERCE","ST":"WA","ZIP":98421,"LATITUDE":47.269941000000003,"LONGITUDE":-122.390147,"FEDERAL":"NO","SEC_CODE":562,"INDUSTRY":"Hazardous Waste"}},{"type":"Feature","id":59,"geometry":{"type":"Point","coordinates":[-122.42779499999995,47.264019000000076]},"properties":{"OBJECTID":59,"YEAR":"2016","TRIFD":"98421SMPSN801PO","FRS_ID":"110000490558","NAME":"WESTROCK TACOMA MILL","ADDRESS":"801 PORTLAND AVE","CITY":"TACOMA","COUNTY":"PIERCE","ST":"WA","ZIP":98421,"LATITUDE":47.264018999999998,"LONGITUDE":-122.427795,"FEDERAL":"NO","SEC_CODE":322,"INDUSTRY":"Paper"}},{"type":"Feature","id":60,"geometry":{"type":"Point","coordinates":[-122.39188799999999,47.27019800000005]},"properties":{"OBJECTID":60,"YEAR":"2016","TRIFD":"98421BRLNG1701E","FRS_ID":"110014328245","NAME":"BURLINGTON ENVIRONMENTAL INC","ADDRESS":"1701 E ALEXANDER AVE","CITY":"TACOMA","COUNTY":"PIERCE","ST":"WA","ZIP":98421,"LATITUDE":47.270198000000001,"LONGITUDE":-122.39188799999999,"FEDERAL":"NO","SEC_CODE":562,"INDUSTRY":"Hazardous Waste"}},{"type":"Feature","id":61,"geometry":{"type":"Point","coordinates":[-122.45999999999998,47.232778000000053]},"properties":{"OBJECTID":61,"YEAR":"2016","TRIFD":"98409TLSFN3021S","FRS_ID":"110000495884","NAME":"BRADKEN ENERGY","ADDRESS":"3021 S WILKESON ST","CITY":"TACOMA","COUNTY":"PIERCE","ST":"WA","ZIP":98409,"LATITUDE":47.232778000000003,"LONGITUDE":-122.45999999999999,"FEDERAL":"NO","SEC_CODE":331,"INDUSTRY":"Primary Metals"}},{"type":"Feature","id":62,"geometry":{"type":"Point","coordinates":[-122.45999999999998,47.232778000000053]},"properties":{"OBJECTID":62,"YEAR":"2016","TRIFD":"98409TLSFN3021S","FRS_ID":"110000495884","NAME":"BRADKEN ENERGY","ADDRESS":"3021 S WILKESON ST","CITY":"TACOMA","COUNTY":"PIERCE","ST":"WA","ZIP":98409,"LATITUDE":47.232778000000003,"LONGITUDE":-122.45999999999999,"FEDERAL":"NO","SEC_CODE":331,"INDUSTRY":"Primary Metals"}},{"type":"Feature","id":63,"geometry":{"type":"Point","coordinates":[-122.23719099999994,47.209016000000076]},"properties":{"OBJECTID":63,"YEAR":"2016","TRIFD":"98390WSTRN1313Z","FRS_ID":"110000490380","NAME":"WESTERN WOOD PRESERVING CO","ADDRESS":"1313 ZEHNDER ST","CITY":"SUMNER","COUNTY":"PIERCE","ST":"WA","ZIP":98390,"LATITUDE":47.209015999999998,"LONGITUDE":-122.237191,"FEDERAL":"NO","SEC_CODE":321,"INDUSTRY":"Wood Products"}},{"type":"Feature","id":64,"geometry":{"type":"Point","coordinates":[-122.24453999999997,47.246596000000068]},"properties":{"OBJECTID":64,"YEAR":"2016","TRIFD":"98390SPRRW13702","FRS_ID":"110000490371","NAME":"SUPERIOR WOOD TREATING","ADDRESS":"13702 STEWART RD.","CITY":"SUMNER","COUNTY":"PIERCE","ST":"WA","ZIP":98390,"LATITUDE":47.246595999999997,"LONGITUDE":-122.24454,"FEDERAL":"NO","SEC_CODE":321,"INDUSTRY":"Wood Products"}},{"type":"Feature","id":65,"geometry":{"type":"Point","coordinates":[-122.42779499999995,47.264019000000076]},"properties":{"OBJECTID":65,"YEAR":"2016","TRIFD":"98421SMPSN801PO","FRS_ID":"110000490558","NAME":"WESTROCK TACOMA MILL","ADDRESS":"801 PORTLAND AVE","CITY":"TACOMA","COUNTY":"PIERCE","ST":"WA","ZIP":98421,"LATITUDE":47.264018999999998,"LONGITUDE":-122.427795,"FEDERAL":"NO","SEC_CODE":322,"INDUSTRY":"Paper"}},{"type":"Feature","id":66,"geometry":{"type":"Point","coordinates":[-122.35276999999996,47.108315000000061]},"properties":{"OBJECTID":66,"YEAR":"2016","TRIFD":"9837WCRLSL19727","FRS_ID":"110054183913","NAME":"CARLISLE CONSTRUCTION MATERIALS LLC","ADDRESS":"19727 57TH AVE E","CITY":"PUYALLUP","COUNTY":"PIERCE","ST":"WA","ZIP":98375,"LATITUDE":47.108314999999997,"LONGITUDE":-122.35277000000001,"FEDERAL":"NO","SEC_CODE":326,"INDUSTRY":"Plastics and Rubber"}},{"type":"Feature","id":67,"geometry":{"type":"Point","coordinates":[-122.42779499999995,47.264019000000076]},"properties":{"OBJECTID":67,"YEAR":"2016","TRIFD":"98421SMPSN801PO","FRS_ID":"110000490558","NAME":"WESTROCK TACOMA MILL","ADDRESS":"801 PORTLAND AVE","CITY":"TACOMA","COUNTY":"PIERCE","ST":"WA","ZIP":98421,"LATITUDE":47.264018999999998,"LONGITUDE":-122.427795,"FEDERAL":"NO","SEC_CODE":322,"INDUSTRY":"Paper"}},{"type":"Feature","id":68,"geometry":{"type":"Point","coordinates":[-122.42779499999995,47.264019000000076]},"properties":{"OBJECTID":68,"YEAR":"2016","TRIFD":"98421SMPSN801PO","FRS_ID":"110000490558","NAME":"WESTROCK TACOMA MILL","ADDRESS":"801 PORTLAND AVE","CITY":"TACOMA","COUNTY":"PIERCE","ST":"WA","ZIP":98421,"LATITUDE":47.264018999999998,"LONGITUDE":-122.427795,"FEDERAL":"NO","SEC_CODE":322,"INDUSTRY":"Paper"}},{"type":"Feature","id":69,"geometry":{"type":"Point","coordinates":[-122.42779499999995,47.264019000000076]},"properties":{"OBJECTID":69,"YEAR":"2016","TRIFD":"98421SMPSN801PO","FRS_ID":"110000490558","NAME":"WESTROCK TACOMA MILL","ADDRESS":"801 PORTLAND AVE","CITY":"TACOMA","COUNTY":"PIERCE","ST":"WA","ZIP":98421,"LATITUDE":47.264018999999998,"LONGITUDE":-122.427795,"FEDERAL":"NO","SEC_CODE":322,"INDUSTRY":"Paper"}},{"type":"Feature","id":70,"geometry":{"type":"Point","coordinates":[-122.24453999999997,47.246596000000068]},"properties":{"OBJECTID":70,"YEAR":"2016","TRIFD":"98390SPRRW13702","FRS_ID":"110000490371","NAME":"SUPERIOR WOOD TREATING","ADDRESS":"13702 STEWART RD.","CITY":"SUMNER","COUNTY":"PIERCE","ST":"WA","ZIP":98390,"LATITUDE":47.246595999999997,"LONGITUDE":-122.24454,"FEDERAL":"NO","SEC_CODE":321,"INDUSTRY":"Wood Products"}},{"type":"Feature","id":71,"geometry":{"type":"Point","coordinates":[-122.41254299999997,47.25644200000005]},"properties":{"OBJECTID":71,"YEAR":"2016","TRIFD":"98421CSCDP1640E","FRS_ID":"110000490488","NAME":"MCFARLAND CASCADE POLE & LUMBER CO","ADDRESS":"1640 E MARC AVE","CITY":"TACOMA","COUNTY":"PIERCE","ST":"WA","ZIP":98421,"LATITUDE":47.256442,"LONGITUDE":-122.412543,"FEDERAL":"NO","SEC_CODE":321,"INDUSTRY":"Wood Products"}},{"type":"Feature","id":72,"geometry":{"type":"Point","coordinates":[-122.43309999999997,47.258539000000042]},"properties":{"OBJECTID":72,"YEAR":"2016","TRIFD":"9842WCNCPH52EAS","FRS_ID":"110000897003","NAME":"PHILLIPS 66 TACOMA TERMINAL","ADDRESS":"520 E D ST","CITY":"TACOMA","COUNTY":"PIERCE","ST":"WA","ZIP":98421,"LATITUDE":47.258538999999999,"LONGITUDE":-122.4331,"FEDERAL":"NO","SEC_CODE":4247,"INDUSTRY":"Petroleum Bulk Terminals"}},{"type":"Feature","id":73,"geometry":{"type":"Point","coordinates":[-122.43309999999997,47.258539000000042]},"properties":{"OBJECTID":73,"YEAR":"2016","TRIFD":"9842WCNCPH52EAS","FRS_ID":"110000897003","NAME":"PHILLIPS 66 TACOMA TERMINAL","ADDRESS":"520 E D ST","CITY":"TACOMA","COUNTY":"PIERCE","ST":"WA","ZIP":98421,"LATITUDE":47.258538999999999,"LONGITUDE":-122.4331,"FEDERAL":"NO","SEC_CODE":4247,"INDUSTRY":"Petroleum Bulk Terminals"}},{"type":"Feature","id":74,"geometry":{"type":"Point","coordinates":[-122.39014699999996,47.269941000000074]},"properties":{"OBJECTID":74,"YEAR":"2016","TRIFD":"98421SLPRN1825A","FRS_ID":"110000620588","NAME":"EMERALD SERVICES INC","ADDRESS":"1825 E ALEXANDER AVE","CITY":"TACOMA","COUNTY":"PIERCE","ST":"WA","ZIP":98421,"LATITUDE":47.269941000000003,"LONGITUDE":-122.390147,"FEDERAL":"NO","SEC_CODE":562,"INDUSTRY":"Hazardous Waste"}},{"type":"Feature","id":75,"geometry":{"type":"Point","coordinates":[-122.39525899999995,47.257694000000072]},"properties":{"OBJECTID":75,"YEAR":"2016","TRIFD":"98421SLRFN3001M","FRS_ID":"110000490549","NAME":"US OIL & REFINING CO","ADDRESS":"3001 MARSHALL AVE","CITY":"TACOMA","COUNTY":"PIERCE","ST":"WA","ZIP":98421,"LATITUDE":47.257694000000001,"LONGITUDE":-122.395259,"FEDERAL":"NO","SEC_CODE":324,"INDUSTRY":"Petroleum"}},{"type":"Feature","id":76,"geometry":{"type":"Point","coordinates":[-122.39525899999995,47.257694000000072]},"properties":{"OBJECTID":76,"YEAR":"2016","TRIFD":"98421SLRFN3001M","FRS_ID":"110000490549","NAME":"US OIL & REFINING CO","ADDRESS":"3001 MARSHALL AVE","CITY":"TACOMA","COUNTY":"PIERCE","ST":"WA","ZIP":98421,"LATITUDE":47.257694000000001,"LONGITUDE":-122.395259,"FEDERAL":"NO","SEC_CODE":324,"INDUSTRY":"Petroleum"}},{"type":"Feature","id":77,"geometry":{"type":"Point","coordinates":[-122.43309999999997,47.258539000000042]},"properties":{"OBJECTID":77,"YEAR":"2016","TRIFD":"9842WCNCPH52EAS","FRS_ID":"110000897003","NAME":"PHILLIPS 66 TACOMA TERMINAL","ADDRESS":"520 E D ST","CITY":"TACOMA","COUNTY":"PIERCE","ST":"WA","ZIP":98421,"LATITUDE":47.258538999999999,"LONGITUDE":-122.4331,"FEDERAL":"NO","SEC_CODE":4247,"INDUSTRY":"Petroleum Bulk Terminals"}},{"type":"Feature","id":78,"geometry":{"type":"Point","coordinates":[-122.39525899999995,47.257694000000072]},"properties":{"OBJECTID":78,"YEAR":"2016","TRIFD":"98421SLRFN3001M","FRS_ID":"110000490549","NAME":"US OIL & REFINING CO","ADDRESS":"3001 MARSHALL AVE","CITY":"TACOMA","COUNTY":"PIERCE","ST":"WA","ZIP":98421,"LATITUDE":47.257694000000001,"LONGITUDE":-122.395259,"FEDERAL":"NO","SEC_CODE":324,"INDUSTRY":"Petroleum"}},{"type":"Feature","id":79,"geometry":{"type":"Point","coordinates":[-122.45999999999998,47.232778000000053]},"properties":{"OBJECTID":79,"YEAR":"2016","TRIFD":"98409TLSFN3021S","FRS_ID":"110000495884","NAME":"BRADKEN ENERGY","ADDRESS":"3021 S WILKESON ST","CITY":"TACOMA","COUNTY":"PIERCE","ST":"WA","ZIP":98409,"LATITUDE":47.232778000000003,"LONGITUDE":-122.45999999999999,"FEDERAL":"NO","SEC_CODE":331,"INDUSTRY":"Primary Metals"}},{"type":"Feature","id":80,"geometry":{"type":"Point","coordinates":[-122.39014699999996,47.269941000000074]},"properties":{"OBJECTID":80,"YEAR":"2016","TRIFD":"98421SLPRN1825A","FRS_ID":"110000620588","NAME":"EMERALD SERVICES INC","ADDRESS":"1825 E ALEXANDER AVE","CITY":"TACOMA","COUNTY":"PIERCE","ST":"WA","ZIP":98421,"LATITUDE":47.269941000000003,"LONGITUDE":-122.390147,"FEDERAL":"NO","SEC_CODE":562,"INDUSTRY":"Hazardous Waste"}},{"type":"Feature","id":81,"geometry":{"type":"Point","coordinates":[-122.39014699999996,47.269941000000074]},"properties":{"OBJECTID":81,"YEAR":"2016","TRIFD":"98421SLPRN1825A","FRS_ID":"110000620588","NAME":"EMERALD SERVICES INC","ADDRESS":"1825 E ALEXANDER AVE","CITY":"TACOMA","COUNTY":"PIERCE","ST":"WA","ZIP":98421,"LATITUDE":47.269941000000003,"LONGITUDE":-122.390147,"FEDERAL":"NO","SEC_CODE":562,"INDUSTRY":"Hazardous Waste"}},{"type":"Feature","id":82,"geometry":{"type":"Point","coordinates":[-122.36411899999996,47.260965000000056]},"properties":{"OBJECTID":82,"YEAR":"2016","TRIFD":"98421GLCRN3601T","FRS_ID":"110005341843","NAME":"GLACIER NORTHWEST INC TACOMA PLANT","ADDRESS":"3601 TAYLOR WAY","CITY":"TACOMA","COUNTY":"PIERCE","ST":"WA","ZIP":98421,"LATITUDE":47.260964999999999,"LONGITUDE":-122.364119,"FEDERAL":"NO","SEC_CODE":327,"INDUSTRY":"Nonmetallic Mineral Product"}},{"type":"Feature","id":83,"geometry":{"type":"Point","coordinates":[-122.488407,47.212188000000026]},"properties":{"OBJECTID":83,"YEAR":"2016","TRIFD":"98409GNRLP4910B","FRS_ID":"110000490406","NAME":"GENERAL PLASTICS MANUFACTURING CO","ADDRESS":"4910 BURLINGTON WAY","CITY":"TACOMA","COUNTY":"PIERCE","ST":"WA","ZIP":98409,"LATITUDE":47.212187999999998,"LONGITUDE":-122.488407,"FEDERAL":"NO","SEC_CODE":326,"INDUSTRY":"Plastics and Rubber"}},{"type":"Feature","id":84,"geometry":{"type":"Point","coordinates":[-122.39726199999996,47.27136500000006]},"properties":{"OBJECTID":84,"YEAR":"2016","TRIFD":"98421CNTNN1220A","FRS_ID":"110020663575","NAME":"GRAYMONT WESTERN US INC TACOMA","ADDRESS":"1220 ALEXANDER AVE","CITY":"TACOMA","COUNTY":"PIERCE","ST":"WA","ZIP":98421,"LATITUDE":47.271365000000003,"LONGITUDE":-122.397262,"FEDERAL":"NO","SEC_CODE":327,"INDUSTRY":"Nonmetallic Mineral Product"}},{"type":"Feature","id":85,"geometry":{"type":"Point","coordinates":[-122.41254299999997,47.25644200000005]},"properties":{"OBJECTID":85,"YEAR":"2016","TRIFD":"98421CSCDP1640E","FRS_ID":"110000490488","NAME":"MCFARLAND CASCADE POLE & LUMBER CO","ADDRESS":"1640 E MARC AVE","CITY":"TACOMA","COUNTY":"PIERCE","ST":"WA","ZIP":98421,"LATITUDE":47.256442,"LONGITUDE":-122.412543,"FEDERAL":"NO","SEC_CODE":321,"INDUSTRY":"Wood Products"}},{"type":"Feature","id":86,"geometry":{"type":"Point","coordinates":[-122.41254299999997,47.25644200000005]},"properties":{"OBJECTID":86,"YEAR":"2016","TRIFD":"98421CSCDP1640E","FRS_ID":"110000490488","NAME":"MCFARLAND CASCADE POLE & LUMBER CO","ADDRESS":"1640 E MARC AVE","CITY":"TACOMA","COUNTY":"PIERCE","ST":"WA","ZIP":98421,"LATITUDE":47.256442,"LONGITUDE":-122.412543,"FEDERAL":"NO","SEC_CODE":321,"INDUSTRY":"Wood Products"}},{"type":"Feature","id":87,"geometry":{"type":"Point","coordinates":[-122.39014699999996,47.269941000000074]},"properties":{"OBJECTID":87,"YEAR":"2016","TRIFD":"98421SLPRN1825A","FRS_ID":"110000620588","NAME":"EMERALD SERVICES INC","ADDRESS":"1825 E ALEXANDER AVE","CITY":"TACOMA","COUNTY":"PIERCE","ST":"WA","ZIP":98421,"LATITUDE":47.269941000000003,"LONGITUDE":-122.390147,"FEDERAL":"NO","SEC_CODE":562,"INDUSTRY":"Hazardous Waste"}},{"type":"Feature","id":88,"geometry":{"type":"Point","coordinates":[-122.41254299999997,47.25644200000005]},"properties":{"OBJECTID":88,"YEAR":"2016","TRIFD":"98421CSCDP1640E","FRS_ID":"110000490488","NAME":"MCFARLAND CASCADE POLE & LUMBER CO","ADDRESS":"1640 E MARC AVE","CITY":"TACOMA","COUNTY":"PIERCE","ST":"WA","ZIP":98421,"LATITUDE":47.256442,"LONGITUDE":-122.412543,"FEDERAL":"NO","SEC_CODE":321,"INDUSTRY":"Wood Products"}},{"type":"Feature","id":89,"geometry":{"type":"Point","coordinates":[-122.39014699999996,47.269941000000074]},"properties":{"OBJECTID":89,"YEAR":"2016","TRIFD":"98421SLPRN1825A","FRS_ID":"110000620588","NAME":"EMERALD SERVICES INC","ADDRESS":"1825 E ALEXANDER AVE","CITY":"TACOMA","COUNTY":"PIERCE","ST":"WA","ZIP":98421,"LATITUDE":47.269941000000003,"LONGITUDE":-122.390147,"FEDERAL":"NO","SEC_CODE":562,"INDUSTRY":"Hazardous Waste"}},{"type":"Feature","id":90,"geometry":{"type":"Point","coordinates":[-122.53649999999999,47.114200000000039]},"properties":{"OBJECTID":90,"YEAR":"2016","TRIFD":"98433SDDSR11MIL","FRS_ID":"110070596041","NAME":"U.S. ARMY JOINT BASE LEWIS-MCCHORD","ADDRESS":"11 MILES S OF TACOMA CITY","CITY":"JBLM","COUNTY":"PIERCE","ST":"WA","ZIP":984339500,"LATITUDE":47.114199999999997,"LONGITUDE":-122.5365,"FEDERAL":"YES","SEC_CODE":999,"INDUSTRY":"Other"}},{"type":"Feature","id":91,"geometry":{"type":"Point","coordinates":[-122.40598799999998,47.259689000000037]},"properties":{"OBJECTID":91,"YEAR":"2016","TRIFD":"9842WPBCRF1718T","FRS_ID":"110011637611","NAME":"PABCO ROOFING PRODUCTS","ADDRESS":"1718 THORNE RD","CITY":"TACOMA","COUNTY":"PIERCE","ST":"WA","ZIP":98421,"LATITUDE":47.259689000000002,"LONGITUDE":-122.40598799999999,"FEDERAL":"NO","SEC_CODE":324,"INDUSTRY":"Petroleum"}},{"type":"Feature","id":92,"geometry":{"type":"Point","coordinates":[-122.46958299999994,47.16148000000004]},"properties":{"OBJECTID":92,"YEAR":"2016","TRIFD":"98499SPCLT24101","FRS_ID":"110000490629","NAME":"SPECIALTY PRODUCTS INC","ADDRESS":"2410 104TH ST CT S SUITE D","CITY":"LAKEWOOD","COUNTY":"PIERCE","ST":"WA","ZIP":98499,"LATITUDE":47.161479999999997,"LONGITUDE":-122.469583,"FEDERAL":"NO","SEC_CODE":326,"INDUSTRY":"Plastics and Rubber"}},{"type":"Feature","id":93,"geometry":{"type":"Point","coordinates":[-122.39014699999996,47.269941000000074]},"properties":{"OBJECTID":93,"YEAR":"2016","TRIFD":"98421SLPRN1825A","FRS_ID":"110000620588","NAME":"EMERALD SERVICES INC","ADDRESS":"1825 E ALEXANDER AVE","CITY":"TACOMA","COUNTY":"PIERCE","ST":"WA","ZIP":98421,"LATITUDE":47.269941000000003,"LONGITUDE":-122.390147,"FEDERAL":"NO","SEC_CODE":562,"INDUSTRY":"Hazardous Waste"}},{"type":"Feature","id":94,"geometry":{"type":"Point","coordinates":[-122.39014699999996,47.269941000000074]},"properties":{"OBJECTID":94,"YEAR":"2016","TRIFD":"98421SLPRN1825A","FRS_ID":"110000620588","NAME":"EMERALD SERVICES INC","ADDRESS":"1825 E ALEXANDER AVE","CITY":"TACOMA","COUNTY":"PIERCE","ST":"WA","ZIP":98421,"LATITUDE":47.269941000000003,"LONGITUDE":-122.390147,"FEDERAL":"NO","SEC_CODE":562,"INDUSTRY":"Hazardous Waste"}},{"type":"Feature","id":95,"geometry":{"type":"Point","coordinates":[-122.39325599999995,47.259364000000062]},"properties":{"OBJECTID":95,"YEAR":"2016","TRIFD":"9842WPCFCF2244P","FRS_ID":"110000910630","NAME":"PACIFIC FUNCTIONAL FLUIDS","ADDRESS":"2244 PORT OF TACOMA RD","CITY":"TACOMA","COUNTY":"PIERCE","ST":"WA","ZIP":98421,"LATITUDE":47.259363999999998,"LONGITUDE":-122.39325599999999,"FEDERAL":"NO","SEC_CODE":999,"INDUSTRY":"Other"}},{"type":"Feature","id":96,"geometry":{"type":"Point","coordinates":[-122.42779499999995,47.264019000000076]},"properties":{"OBJECTID":96,"YEAR":"2016","TRIFD":"98421SMPSN801PO","FRS_ID":"110000490558","NAME":"WESTROCK TACOMA MILL","ADDRESS":"801 PORTLAND AVE","CITY":"TACOMA","COUNTY":"PIERCE","ST":"WA","ZIP":98421,"LATITUDE":47.264018999999998,"LONGITUDE":-122.427795,"FEDERAL":"NO","SEC_CODE":322,"INDUSTRY":"Paper"}},{"type":"Feature","id":97,"geometry":{"type":"Point","coordinates":[-122.39188799999999,47.27019800000005]},"properties":{"OBJECTID":97,"YEAR":"2016","TRIFD":"98421BRLNG1701E","FRS_ID":"110014328245","NAME":"BURLINGTON ENVIRONMENTAL INC","ADDRESS":"1701 E ALEXANDER AVE","CITY":"TACOMA","COUNTY":"PIERCE","ST":"WA","ZIP":98421,"LATITUDE":47.270198000000001,"LONGITUDE":-122.39188799999999,"FEDERAL":"NO","SEC_CODE":562,"INDUSTRY":"Hazardous Waste"}},{"type":"Feature","id":98,"geometry":{"type":"Point","coordinates":[-122.39525899999995,47.257694000000072]},"properties":{"OBJECTID":98,"YEAR":"2016","TRIFD":"98421SLRFN3001M","FRS_ID":"110000490549","NAME":"US OIL & REFINING CO","ADDRESS":"3001 MARSHALL AVE","CITY":"TACOMA","COUNTY":"PIERCE","ST":"WA","ZIP":98421,"LATITUDE":47.257694000000001,"LONGITUDE":-122.395259,"FEDERAL":"NO","SEC_CODE":324,"INDUSTRY":"Petroleum"}},{"type":"Feature","id":99,"geometry":{"type":"Point","coordinates":[-122.43309999999997,47.258539000000042]},"properties":{"OBJECTID":99,"YEAR":"2016","TRIFD":"9842WCNCPH52EAS","FRS_ID":"110000897003","NAME":"PHILLIPS 66 TACOMA TERMINAL","ADDRESS":"520 E D ST","CITY":"TACOMA","COUNTY":"PIERCE","ST":"WA","ZIP":98421,"LATITUDE":47.258538999999999,"LONGITUDE":-122.4331,"FEDERAL":"NO","SEC_CODE":4247,"INDUSTRY":"Petroleum Bulk Terminals"}},{"type":"Feature","id":100,"geometry":{"type":"Point","coordinates":[-122.40301599999998,47.247943000000078]},"properties":{"OBJECTID":100,"YEAR":"2016","TRIFD":"98421DYNVR2144M","FRS_ID":"110000490521","NAME":"ARCLIN SURFACES LLC","ADDRESS":"2144 MILWAUKEE WAY","CITY":"TACOMA","COUNTY":"PIERCE","ST":"WA","ZIP":98421,"LATITUDE":47.247942999999999,"LONGITUDE":-122.40301599999999,"FEDERAL":"NO","SEC_CODE":322,"INDUSTRY":"Paper"}},{"type":"Feature","id":101,"geometry":{"type":"Point","coordinates":[-122.39525899999995,47.257694000000072]},"properties":{"OBJECTID":101,"YEAR":"2016","TRIFD":"98421SLRFN3001M","FRS_ID":"110000490549","NAME":"US OIL & REFINING CO","ADDRESS":"3001 MARSHALL AVE","CITY":"TACOMA","COUNTY":"PIERCE","ST":"WA","ZIP":98421,"LATITUDE":47.257694000000001,"LONGITUDE":-122.395259,"FEDERAL":"NO","SEC_CODE":324,"INDUSTRY":"Petroleum"}},{"type":"Feature","id":102,"geometry":{"type":"Point","coordinates":[-122.39525899999995,47.257694000000072]},"properties":{"OBJECTID":102,"YEAR":"2016","TRIFD":"98421SLRFN3001M","FRS_ID":"110000490549","NAME":"US OIL & REFINING CO","ADDRESS":"3001 MARSHALL AVE","CITY":"TACOMA","COUNTY":"PIERCE","ST":"WA","ZIP":98421,"LATITUDE":47.257694000000001,"LONGITUDE":-122.395259,"FEDERAL":"NO","SEC_CODE":324,"INDUSTRY":"Petroleum"}},{"type":"Feature","id":103,"geometry":{"type":"Point","coordinates":[-122.39525899999995,47.257694000000072]},"properties":{"OBJECTID":103,"YEAR":"2016","TRIFD":"98421SLRFN3001M","FRS_ID":"110000490549","NAME":"US OIL & REFINING CO","ADDRESS":"3001 MARSHALL AVE","CITY":"TACOMA","COUNTY":"PIERCE","ST":"WA","ZIP":98421,"LATITUDE":47.257694000000001,"LONGITUDE":-122.395259,"FEDERAL":"NO","SEC_CODE":324,"INDUSTRY":"Petroleum"}},{"type":"Feature","id":104,"geometry":{"type":"Point","coordinates":[-122.42400199999997,47.250585000000058]},"properties":{"OBJECTID":104,"YEAR":"2016","TRIFD":"98421RNRPL624E1","FRS_ID":"110001916767","NAME":"RAINIER PLYWOOD CO","ADDRESS":"624 E  15TH ST","CITY":"TACOMA","COUNTY":"PIERCE","ST":"WA","ZIP":98421,"LATITUDE":47.250585000000001,"LONGITUDE":-122.424002,"FEDERAL":"NO","SEC_CODE":322,"INDUSTRY":"Paper"}},{"type":"Feature","id":105,"geometry":{"type":"Point","coordinates":[-122.42779499999995,47.264019000000076]},"properties":{"OBJECTID":105,"YEAR":"2016","TRIFD":"98421SMPSN801PO","FRS_ID":"110000490558","NAME":"WESTROCK TACOMA MILL","ADDRESS":"801 PORTLAND AVE","CITY":"TACOMA","COUNTY":"PIERCE","ST":"WA","ZIP":98421,"LATITUDE":47.264018999999998,"LONGITUDE":-122.427795,"FEDERAL":"NO","SEC_CODE":322,"INDUSTRY":"Paper"}},{"type":"Feature","id":106,"geometry":{"type":"Point","coordinates":[-122.39486899999997,47.269558000000075]},"properties":{"OBJECTID":106,"YEAR":"2016","TRIFD":"98421DMTRN1240A","FRS_ID":"110000902300","NAME":"GEORGIA-PACIFIC GYPSUM LLC","ADDRESS":"1240 ALEXANDER AVE","CITY":"TACOMA","COUNTY":"PIERCE","ST":"WA","ZIP":98421,"LATITUDE":47.269558000000004,"LONGITUDE":-122.394869,"FEDERAL":"NO","SEC_CODE":327,"INDUSTRY":"Nonmetallic Mineral Product"}},{"type":"Feature","id":107,"geometry":{"type":"Point","coordinates":[-122.40210099999996,47.243730000000028]},"properties":{"OBJECTID":107,"YEAR":"2016","TRIFD":"9840WSSCTD232MI","FRS_ID":"110005310831","NAME":"ASSOCIATED PETROLEUM PRODUCTS INC","ADDRESS":"2320 MILWAUKEE WAY","CITY":"TACOMA","COUNTY":"PIERCE","ST":"WA","ZIP":98421,"LATITUDE":47.243729999999999,"LONGITUDE":-122.402101,"FEDERAL":"NO","SEC_CODE":4247,"INDUSTRY":"Petroleum Bulk Terminals"}},{"type":"Feature","id":108,"geometry":{"type":"Point","coordinates":[-122.39525899999995,47.257694000000072]},"properties":{"OBJECTID":108,"YEAR":"2016","TRIFD":"98421SLRFN3001M","FRS_ID":"110000490549","NAME":"US OIL & REFINING CO","ADDRESS":"3001 MARSHALL AVE","CITY":"TACOMA","COUNTY":"PIERCE","ST":"WA","ZIP":98421,"LATITUDE":47.257694000000001,"LONGITUDE":-122.395259,"FEDERAL":"NO","SEC_CODE":324,"INDUSTRY":"Petroleum"}},{"type":"Feature","id":109,"geometry":{"type":"Point","coordinates":[-122.39525899999995,47.257694000000072]},"properties":{"OBJECTID":109,"YEAR":"2016","TRIFD":"98421SLRFN3001M","FRS_ID":"110000490549","NAME":"US OIL & REFINING CO","ADDRESS":"3001 MARSHALL AVE","CITY":"TACOMA","COUNTY":"PIERCE","ST":"WA","ZIP":98421,"LATITUDE":47.257694000000001,"LONGITUDE":-122.395259,"FEDERAL":"NO","SEC_CODE":324,"INDUSTRY":"Petroleum"}},{"type":"Feature","id":110,"geometry":{"type":"Point","coordinates":[-122.42167899999998,47.239032000000066]},"properties":{"OBJECTID":110,"YEAR":"2016","TRIFD":"98421JFFRS817E2","FRS_ID":"110064208165","NAME":"CARAUSTAR TACOMA PAPERBOARD","ADDRESS":"808 E 26TH ST","CITY":"TACOMA","COUNTY":"PIERCE","ST":"WA","ZIP":98421,"LATITUDE":47.239032000000002,"LONGITUDE":-122.421679,"FEDERAL":"NO","SEC_CODE":322,"INDUSTRY":"Paper"}},{"type":"Feature","id":111,"geometry":{"type":"Point","coordinates":[-122.53649999999999,47.114200000000039]},"properties":{"OBJECTID":111,"YEAR":"2016","TRIFD":"98433SDDSR11MIL","FRS_ID":"110070596041","NAME":"U.S. ARMY JOINT BASE LEWIS-MCCHORD","ADDRESS":"11 MILES S OF TACOMA CITY","CITY":"JBLM","COUNTY":"PIERCE","ST":"WA","ZIP":984339500,"LATITUDE":47.114199999999997,"LONGITUDE":-122.5365,"FEDERAL":"YES","SEC_CODE":999,"INDUSTRY":"Other"}},{"type":"Feature","id":112,"geometry":{"type":"Point","coordinates":[-122.43309999999997,47.258539000000042]},"properties":{"OBJECTID":112,"YEAR":"2016","TRIFD":"9842WCNCPH52EAS","FRS_ID":"110000897003","NAME":"PHILLIPS 66 TACOMA TERMINAL","ADDRESS":"520 E D ST","CITY":"TACOMA","COUNTY":"PIERCE","ST":"WA","ZIP":98421,"LATITUDE":47.258538999999999,"LONGITUDE":-122.4331,"FEDERAL":"NO","SEC_CODE":4247,"INDUSTRY":"Petroleum Bulk Terminals"}},{"type":"Feature","id":113,"geometry":{"type":"Point","coordinates":[-122.42400199999997,47.250585000000058]},"properties":{"OBJECTID":113,"YEAR":"2016","TRIFD":"98421RNRPL624E1","FRS_ID":"110001916767","NAME":"RAINIER PLYWOOD CO","ADDRESS":"624 E  15TH ST","CITY":"TACOMA","COUNTY":"PIERCE","ST":"WA","ZIP":98421,"LATITUDE":47.250585000000001,"LONGITUDE":-122.424002,"FEDERAL":"NO","SEC_CODE":322,"INDUSTRY":"Paper"}},{"type":"Feature","id":114,"geometry":{"type":"Point","coordinates":[-122.53649999999999,47.114200000000039]},"properties":{"OBJECTID":114,"YEAR":"2016","TRIFD":"98433SDDSR11MIL","FRS_ID":"110070596041","NAME":"U.S. ARMY JOINT BASE LEWIS-MCCHORD","ADDRESS":"11 MILES S OF TACOMA CITY","CITY":"JBLM","COUNTY":"PIERCE","ST":"WA","ZIP":984339500,"LATITUDE":47.114199999999997,"LONGITUDE":-122.5365,"FEDERAL":"YES","SEC_CODE":999,"INDUSTRY":"Other"}},{"type":"Feature","id":115,"geometry":{"type":"Point","coordinates":[-122.43309999999997,47.258539000000042]},"properties":{"OBJECTID":115,"YEAR":"2016","TRIFD":"9842WCNCPH52EAS","FRS_ID":"110000897003","NAME":"PHILLIPS 66 TACOMA TERMINAL","ADDRESS":"520 E D ST","CITY":"TACOMA","COUNTY":"PIERCE","ST":"WA","ZIP":98421,"LATITUDE":47.258538999999999,"LONGITUDE":-122.4331,"FEDERAL":"NO","SEC_CODE":4247,"INDUSTRY":"Petroleum Bulk Terminals"}},{"type":"Feature","id":116,"geometry":{"type":"Point","coordinates":[-122.40301599999998,47.247943000000078]},"properties":{"OBJECTID":116,"YEAR":"2016","TRIFD":"98421DYNVR2144M","FRS_ID":"110000490521","NAME":"ARCLIN SURFACES LLC","ADDRESS":"2144 MILWAUKEE WAY","CITY":"TACOMA","COUNTY":"PIERCE","ST":"WA","ZIP":98421,"LATITUDE":47.247942999999999,"LONGITUDE":-122.40301599999999,"FEDERAL":"NO","SEC_CODE":322,"INDUSTRY":"Paper"}},{"type":"Feature","id":117,"geometry":{"type":"Point","coordinates":[-122.48054999999999,47.22554000000008]},"properties":{"OBJECTID":117,"YEAR":"2016","TRIFD":"9840WBRDKN3611S","FRS_ID":"110054929459","NAME":"BRADKEN INC","ADDRESS":"3611 S WARNER ST","CITY":"TACOMA","COUNTY":"PIERCE","ST":"WA","ZIP":98409,"LATITUDE":47.225540000000002,"LONGITUDE":-122.48054999999999,"FEDERAL":"NO","SEC_CODE":331,"INDUSTRY":"Primary Metals"}},{"type":"Feature","id":118,"geometry":{"type":"Point","coordinates":[-122.39014699999996,47.269941000000074]},"properties":{"OBJECTID":118,"YEAR":"2016","TRIFD":"98421SLPRN1825A","FRS_ID":"110000620588","NAME":"EMERALD SERVICES INC","ADDRESS":"1825 E ALEXANDER AVE","CITY":"TACOMA","COUNTY":"PIERCE","ST":"WA","ZIP":98421,"LATITUDE":47.269941000000003,"LONGITUDE":-122.390147,"FEDERAL":"NO","SEC_CODE":562,"INDUSTRY":"Hazardous Waste"}},{"type":"Feature","id":119,"geometry":{"type":"Point","coordinates":[-122.39014699999996,47.269941000000074]},"properties":{"OBJECTID":119,"YEAR":"2016","TRIFD":"98421SLPRN1825A","FRS_ID":"110000620588","NAME":"EMERALD SERVICES INC","ADDRESS":"1825 E ALEXANDER AVE","CITY":"TACOMA","COUNTY":"PIERCE","ST":"WA","ZIP":98421,"LATITUDE":47.269941000000003,"LONGITUDE":-122.390147,"FEDERAL":"NO","SEC_CODE":562,"INDUSTRY":"Hazardous Waste"}},{"type":"Feature","id":120,"geometry":{"type":"Point","coordinates":[-122.39525899999995,47.257694000000072]},"properties":{"OBJECTID":120,"YEAR":"2016","TRIFD":"98421SLRFN3001M","FRS_ID":"110000490549","NAME":"US OIL & REFINING CO","ADDRESS":"3001 MARSHALL AVE","CITY":"TACOMA","COUNTY":"PIERCE","ST":"WA","ZIP":98421,"LATITUDE":47.257694000000001,"LONGITUDE":-122.395259,"FEDERAL":"NO","SEC_CODE":324,"INDUSTRY":"Petroleum"}},{"type":"Feature","id":121,"geometry":{"type":"Point","coordinates":[-122.23719099999994,47.209016000000076]},"properties":{"OBJECTID":121,"YEAR":"2016","TRIFD":"98390WSTRN1313Z","FRS_ID":"110000490380","NAME":"WESTERN WOOD PRESERVING CO","ADDRESS":"1313 ZEHNDER ST","CITY":"SUMNER","COUNTY":"PIERCE","ST":"WA","ZIP":98390,"LATITUDE":47.209015999999998,"LONGITUDE":-122.237191,"FEDERAL":"NO","SEC_CODE":321,"INDUSTRY":"Wood Products"}},{"type":"Feature","id":122,"geometry":{"type":"Point","coordinates":[-122.18389099999996,47.081112000000076]},"properties":{"OBJECTID":122,"YEAR":"2016","TRIFD":"98360BXTRM19220","FRS_ID":"110042085016","NAME":"BAXTER MANUFACTURING A DIV OF ITW-FOOD EQUIPMENT GROUP","ADDRESS":"19220 STATE RTE 162 E","CITY":"ORTING","COUNTY":"PIERCE","ST":"WA","ZIP":98360,"LATITUDE":47.081111999999997,"LONGITUDE":-122.183891,"FEDERAL":"NO","SEC_CODE":333,"INDUSTRY":"Machinery"}},{"type":"Feature","id":123,"geometry":{"type":"Point","coordinates":[-122.43309999999997,47.258539000000042]},"properties":{"OBJECTID":123,"YEAR":"2016","TRIFD":"9842WCNCPH52EAS","FRS_ID":"110000897003","NAME":"PHILLIPS 66 TACOMA TERMINAL","ADDRESS":"520 E D ST","CITY":"TACOMA","COUNTY":"PIERCE","ST":"WA","ZIP":98421,"LATITUDE":47.258538999999999,"LONGITUDE":-122.4331,"FEDERAL":"NO","SEC_CODE":4247,"INDUSTRY":"Petroleum Bulk Terminals"}},{"type":"Feature","id":124,"geometry":{"type":"Point","coordinates":[-122.48054999999999,47.22554000000008]},"properties":{"OBJECTID":124,"YEAR":"2016","TRIFD":"9840WBRDKN3611S","FRS_ID":"110054929459","NAME":"BRADKEN INC","ADDRESS":"3611 S WARNER ST","CITY":"TACOMA","COUNTY":"PIERCE","ST":"WA","ZIP":98409,"LATITUDE":47.225540000000002,"LONGITUDE":-122.48054999999999,"FEDERAL":"NO","SEC_CODE":331,"INDUSTRY":"Primary Metals"}},{"type":"Feature","id":125,"geometry":{"type":"Point","coordinates":[-122.40598799999998,47.259689000000037]},"properties":{"OBJECTID":125,"YEAR":"2016","TRIFD":"9842WPBCRF1718T","FRS_ID":"110011637611","NAME":"PABCO ROOFING PRODUCTS","ADDRESS":"1718 THORNE RD","CITY":"TACOMA","COUNTY":"PIERCE","ST":"WA","ZIP":98421,"LATITUDE":47.259689000000002,"LONGITUDE":-122.40598799999999,"FEDERAL":"NO","SEC_CODE":324,"INDUSTRY":"Petroleum"}},{"type":"Feature","id":126,"geometry":{"type":"Point","coordinates":[-122.42779499999995,47.264019000000076]},"properties":{"OBJECTID":126,"YEAR":"2016","TRIFD":"98421SMPSN801PO","FRS_ID":"110000490558","NAME":"WESTROCK TACOMA MILL","ADDRESS":"801 PORTLAND AVE","CITY":"TACOMA","COUNTY":"PIERCE","ST":"WA","ZIP":98421,"LATITUDE":47.264018999999998,"LONGITUDE":-122.427795,"FEDERAL":"NO","SEC_CODE":322,"INDUSTRY":"Paper"}},{"type":"Feature","id":127,"geometry":{"type":"Point","coordinates":[-122.42779499999995,47.264019000000076]},"properties":{"OBJECTID":127,"YEAR":"2016","TRIFD":"98421SMPSN801PO","FRS_ID":"110000490558","NAME":"WESTROCK TACOMA MILL","ADDRESS":"801 PORTLAND AVE","CITY":"TACOMA","COUNTY":"PIERCE","ST":"WA","ZIP":98421,"LATITUDE":47.264018999999998,"LONGITUDE":-122.427795,"FEDERAL":"NO","SEC_CODE":322,"INDUSTRY":"Paper"}},{"type":"Feature","id":128,"geometry":{"type":"Point","coordinates":[-122.42779499999995,47.264019000000076]},"properties":{"OBJECTID":128,"YEAR":"2016","TRIFD":"98421SMPSN801PO","FRS_ID":"110000490558","NAME":"WESTROCK TACOMA MILL","ADDRESS":"801 PORTLAND AVE","CITY":"TACOMA","COUNTY":"PIERCE","ST":"WA","ZIP":98421,"LATITUDE":47.264018999999998,"LONGITUDE":-122.427795,"FEDERAL":"NO","SEC_CODE":322,"INDUSTRY":"Paper"}},{"type":"Feature","id":129,"geometry":{"type":"Point","coordinates":[-122.34685099999996,47.086549000000048]},"properties":{"OBJECTID":129,"YEAR":"2016","TRIFD":"98373BCGFB18001","FRS_ID":"110015575215","NAME":"BOEING COMMERCIAL AIRPLANES-FREDERICKSON","ADDRESS":"18001 CANYON RD E","CITY":"PUYALLUP","COUNTY":"PIERCE","ST":"WA","ZIP":98375,"LATITUDE":47.086548999999998,"LONGITUDE":-122.346851,"FEDERAL":"NO","SEC_CODE":336,"INDUSTRY":"Transportation Equipment"}},{"type":"Feature","id":130,"geometry":{"type":"Point","coordinates":[-122.43309999999997,47.258539000000042]},"properties":{"OBJECTID":130,"YEAR":"2016","TRIFD":"9842WCNCPH52EAS","FRS_ID":"110000897003","NAME":"PHILLIPS 66 TACOMA TERMINAL","ADDRESS":"520 E D ST","CITY":"TACOMA","COUNTY":"PIERCE","ST":"WA","ZIP":98421,"LATITUDE":47.258538999999999,"LONGITUDE":-122.4331,"FEDERAL":"NO","SEC_CODE":4247,"INDUSTRY":"Petroleum Bulk Terminals"}},{"type":"Feature","id":131,"geometry":{"type":"Point","coordinates":[-122.39188799999999,47.27019800000005]},"properties":{"OBJECTID":131,"YEAR":"2016","TRIFD":"98421BRLNG1701E","FRS_ID":"110014328245","NAME":"BURLINGTON ENVIRONMENTAL INC","ADDRESS":"1701 E ALEXANDER AVE","CITY":"TACOMA","COUNTY":"PIERCE","ST":"WA","ZIP":98421,"LATITUDE":47.270198000000001,"LONGITUDE":-122.39188799999999,"FEDERAL":"NO","SEC_CODE":562,"INDUSTRY":"Hazardous Waste"}},{"type":"Feature","id":132,"geometry":{"type":"Point","coordinates":[-122.39188799999999,47.27019800000005]},"properties":{"OBJECTID":132,"YEAR":"2016","TRIFD":"98421BRLNG1701E","FRS_ID":"110014328245","NAME":"BURLINGTON ENVIRONMENTAL INC","ADDRESS":"1701 E ALEXANDER AVE","CITY":"TACOMA","COUNTY":"PIERCE","ST":"WA","ZIP":98421,"LATITUDE":47.270198000000001,"LONGITUDE":-122.39188799999999,"FEDERAL":"NO","SEC_CODE":562,"INDUSTRY":"Hazardous Waste"}},{"type":"Feature","id":133,"geometry":{"type":"Point","coordinates":[-122.39014699999996,47.269941000000074]},"properties":{"OBJECTID":133,"YEAR":"2016","TRIFD":"98421SLPRN1825A","FRS_ID":"110000620588","NAME":"EMERALD SERVICES INC","ADDRESS":"1825 E ALEXANDER AVE","CITY":"TACOMA","COUNTY":"PIERCE","ST":"WA","ZIP":98421,"LATITUDE":47.269941000000003,"LONGITUDE":-122.390147,"FEDERAL":"NO","SEC_CODE":562,"INDUSTRY":"Hazardous Waste"}},{"type":"Feature","id":134,"geometry":{"type":"Point","coordinates":[-122.42400199999997,47.250585000000058]},"properties":{"OBJECTID":134,"YEAR":"2016","TRIFD":"98421RNRPL624E1","FRS_ID":"110001916767","NAME":"RAINIER PLYWOOD CO","ADDRESS":"624 E  15TH ST","CITY":"TACOMA","COUNTY":"PIERCE","ST":"WA","ZIP":98421,"LATITUDE":47.250585000000001,"LONGITUDE":-122.424002,"FEDERAL":"NO","SEC_CODE":322,"INDUSTRY":"Paper"}},{"type":"Feature","id":135,"geometry":{"type":"Point","coordinates":[-122.39014699999996,47.269941000000074]},"properties":{"OBJECTID":135,"YEAR":"2016","TRIFD":"98421SLPRN1825A","FRS_ID":"110000620588","NAME":"EMERALD SERVICES INC","ADDRESS":"1825 E ALEXANDER AVE","CITY":"TACOMA","COUNTY":"PIERCE","ST":"WA","ZIP":98421,"LATITUDE":47.269941000000003,"LONGITUDE":-122.390147,"FEDERAL":"NO","SEC_CODE":562,"INDUSTRY":"Hazardous Waste"}},{"type":"Feature","id":136,"geometry":{"type":"Point","coordinates":[-122.53649999999999,47.114200000000039]},"properties":{"OBJECTID":136,"YEAR":"2016","TRIFD":"98433SDDSR11MIL","FRS_ID":"110070596041","NAME":"U.S. ARMY JOINT BASE LEWIS-MCCHORD","ADDRESS":"11 MILES S OF TACOMA CITY","CITY":"JBLM","COUNTY":"PIERCE","ST":"WA","ZIP":984339500,"LATITUDE":47.114199999999997,"LONGITUDE":-122.5365,"FEDERAL":"YES","SEC_CODE":999,"INDUSTRY":"Other"}},{"type":"Feature","id":137,"geometry":{"type":"Point","coordinates":[-122.34685099999996,47.086549000000048]},"properties":{"OBJECTID":137,"YEAR":"2016","TRIFD":"98373BCGFB18001","FRS_ID":"110015575215","NAME":"BOEING COMMERCIAL AIRPLANES-FREDERICKSON","ADDRESS":"18001 CANYON RD E","CITY":"PUYALLUP","COUNTY":"PIERCE","ST":"WA","ZIP":98375,"LATITUDE":47.086548999999998,"LONGITUDE":-122.346851,"FEDERAL":"NO","SEC_CODE":336,"INDUSTRY":"Transportation Equipment"}},{"type":"Feature","id":138,"geometry":{"type":"Point","coordinates":[-122.65012299999995,47.120695000000069]},"properties":{"OBJECTID":138,"YEAR":"2016","TRIFD":"98327GLCRN4301P","FRS_ID":"110005392119","NAME":"GLACIER NORTHWEST INC DUPONT PLANT","ADDRESS":"4301 PIONEER WAY","CITY":"DUPONT","COUNTY":"PIERCE","ST":"WA","ZIP":98327,"LATITUDE":47.120694999999998,"LONGITUDE":-122.65012299999999,"FEDERAL":"NO","SEC_CODE":327,"INDUSTRY":"Nonmetallic Mineral Product"}},{"type":"Feature","id":139,"geometry":{"type":"Point","coordinates":[-122.36903299999994,47.244049000000075]},"properties":{"OBJECTID":139,"YEAR":"2016","TRIFD":"98424RNRBL45001","FRS_ID":"110000828766","NAME":"RAINIER BALLISTICS LLC","ADDRESS":"4500 15TH ST E","CITY":"TACOMA","COUNTY":"PIERCE","ST":"WA","ZIP":98424,"LATITUDE":47.244048999999997,"LONGITUDE":-122.369033,"FEDERAL":"NO","SEC_CODE":332,"INDUSTRY":"Fabricated Metals"}},{"type":"Feature","id":140,"geometry":{"type":"Point","coordinates":[-122.33231699999999,47.230213000000049]},"properties":{"OBJECTID":140,"YEAR":"2016","TRIFD":"98424MLGRD29357","FRS_ID":"110016685167","NAME":"MILGARD MANUFACTURING INC TACOMA PULTRUSION","ADDRESS":"2935 70TH AVE E","CITY":"TACOMA","COUNTY":"PIERCE","ST":"WA","ZIP":98424,"LATITUDE":47.230212999999999,"LONGITUDE":-122.332317,"FEDERAL":"NO","SEC_CODE":326,"INDUSTRY":"Plastics and Rubber"}},{"type":"Feature","id":141,"geometry":{"type":"Point","coordinates":[-122.43309999999997,47.258539000000042]},"properties":{"OBJECTID":141,"YEAR":"2016","TRIFD":"9842WCNCPH52EAS","FRS_ID":"110000897003","NAME":"PHILLIPS 66 TACOMA TERMINAL","ADDRESS":"520 E D ST","CITY":"TACOMA","COUNTY":"PIERCE","ST":"WA","ZIP":98421,"LATITUDE":47.258538999999999,"LONGITUDE":-122.4331,"FEDERAL":"NO","SEC_CODE":4247,"INDUSTRY":"Petroleum Bulk Terminals"}},{"type":"Feature","id":142,"geometry":{"type":"Point","coordinates":[-122.40301599999998,47.247943000000078]},"properties":{"OBJECTID":142,"YEAR":"2016","TRIFD":"98421DYNVR2144M","FRS_ID":"110000490521","NAME":"ARCLIN SURFACES LLC","ADDRESS":"2144 MILWAUKEE WAY","CITY":"TACOMA","COUNTY":"PIERCE","ST":"WA","ZIP":98421,"LATITUDE":47.247942999999999,"LONGITUDE":-122.40301599999999,"FEDERAL":"NO","SEC_CODE":322,"INDUSTRY":"Paper"}},{"type":"Feature","id":143,"geometry":{"type":"Point","coordinates":[-122.23719099999994,47.209016000000076]},"properties":{"OBJECTID":143,"YEAR":"2016","TRIFD":"98390WSTRN1313Z","FRS_ID":"110000490380","NAME":"WESTERN WOOD PRESERVING CO","ADDRESS":"1313 ZEHNDER ST","CITY":"SUMNER","COUNTY":"PIERCE","ST":"WA","ZIP":98390,"LATITUDE":47.209015999999998,"LONGITUDE":-122.237191,"FEDERAL":"NO","SEC_CODE":321,"INDUSTRY":"Wood Products"}},{"type":"Feature","id":144,"geometry":{"type":"Point","coordinates":[-122.23964299999994,47.211588000000063]},"properties":{"OBJECTID":144,"YEAR":"2016","TRIFD":"98390SNCPR1802S","FRS_ID":"110002041923","NAME":"SONOCO PRODUCTS CO","ADDRESS":"1802 STEELE AVE","CITY":"SUMNER","COUNTY":"PIERCE","ST":"WA","ZIP":98390,"LATITUDE":47.211587999999999,"LONGITUDE":-122.239643,"FEDERAL":"NO","SEC_CODE":322,"INDUSTRY":"Paper"}},{"type":"Feature","id":145,"geometry":{"type":"Point","coordinates":[-122.39188799999999,47.27019800000005]},"properties":{"OBJECTID":145,"YEAR":"2016","TRIFD":"98421BRLNG1701E","FRS_ID":"110014328245","NAME":"BURLINGTON ENVIRONMENTAL INC","ADDRESS":"1701 E ALEXANDER AVE","CITY":"TACOMA","COUNTY":"PIERCE","ST":"WA","ZIP":98421,"LATITUDE":47.270198000000001,"LONGITUDE":-122.39188799999999,"FEDERAL":"NO","SEC_CODE":562,"INDUSTRY":"Hazardous Waste"}},{"type":"Feature","id":146,"geometry":{"type":"Point","coordinates":[-122.39525899999995,47.257694000000072]},"properties":{"OBJECTID":146,"YEAR":"2016","TRIFD":"98421SLRFN3001M","FRS_ID":"110000490549","NAME":"US OIL & REFINING CO","ADDRESS":"3001 MARSHALL AVE","CITY":"TACOMA","COUNTY":"PIERCE","ST":"WA","ZIP":98421,"LATITUDE":47.257694000000001,"LONGITUDE":-122.395259,"FEDERAL":"NO","SEC_CODE":324,"INDUSTRY":"Petroleum"}},{"type":"Feature","id":147,"geometry":{"type":"Point","coordinates":[-122.39014699999996,47.269941000000074]},"properties":{"OBJECTID":147,"YEAR":"2016","TRIFD":"98421SLPRN1825A","FRS_ID":"110000620588","NAME":"EMERALD SERVICES INC","ADDRESS":"1825 E ALEXANDER AVE","CITY":"TACOMA","COUNTY":"PIERCE","ST":"WA","ZIP":98421,"LATITUDE":47.269941000000003,"LONGITUDE":-122.390147,"FEDERAL":"NO","SEC_CODE":562,"INDUSTRY":"Hazardous Waste"}},{"type":"Feature","id":148,"geometry":{"type":"Point","coordinates":[-122.488407,47.212188000000026]},"properties":{"OBJECTID":148,"YEAR":"2016","TRIFD":"98409GNRLP4910B","FRS_ID":"110000490406","NAME":"GENERAL PLASTICS MANUFACTURING CO","ADDRESS":"4910 BURLINGTON WAY","CITY":"TACOMA","COUNTY":"PIERCE","ST":"WA","ZIP":98409,"LATITUDE":47.212187999999998,"LONGITUDE":-122.488407,"FEDERAL":"NO","SEC_CODE":326,"INDUSTRY":"Plastics and Rubber"}}]}
